City ID,City,Country,Date,Lat,Lng,Max Temp,Humidity,Cloudiness,Wind Speed,Current Description,Rain inches (last 3hrs),Snow inches (last 3hrs)
0,Tasiilaq,GL,2021-06-30 19:37:10,65.6145,-37.6368,50.16,61,0,7.74,clear sky,0.0,0.0
1,Hobart,AU,2021-06-30 19:37:11,-42.8794,147.3294,47.26,90,20,1.99,few clouds,0.0,0.0
2,East London,ZA,2021-06-30 19:37:11,-33.0153,27.9116,61.92,53,24,5.64,few clouds,0.0,0.0
3,Barrow,US,2021-06-30 19:35:01,71.2906,-156.7887,33.82,80,90,6.91,overcast clouds,0.0,0.0
4,Mataura,NZ,2021-06-30 19:37:11,-46.1927,168.8643,37.47,97,90,2.24,overcast clouds,0.0,0.0
5,Puerto Escondido,MX,2021-06-30 19:37:12,15.85,-97.0667,85.03,54,75,6.91,broken clouds,0.0,0.0
6,Manuk Mangkaw,PH,2021-06-30 19:37:12,4.8,119.85,82.74,71,91,2.35,overcast clouds,0.0,0.0
7,Srednekolymsk,RU,2021-06-30 19:37:12,67.45,153.6833,43.83,63,7,11.32,clear sky,0.0,0.0
8,Hilo,US,2021-06-30 19:37:13,19.7297,-155.09,80.8,81,90,8.05,light rain,0.0,0.0
9,Tuktoyaktuk,CA,2021-06-30 19:37:13,69.4541,-133.0374,55.4,67,90,3.44,overcast clouds,0.0,0.0
10,Vidim,RU,2021-06-30 19:37:13,56.4088,103.1106,53.1,91,98,0.56,overcast clouds,0.0,0.0
11,Vaini,TO,2021-06-30 19:37:14,-21.2,-175.2,71.76,100,75,6.91,moderate rain,0.0,0.0
12,Muli,MV,2021-06-30 19:37:14,2.9167,73.5667,82.87,75,92,11.81,overcast clouds,0.0,0.0
13,Niono,ML,2021-06-30 19:37:14,14.2526,-5.993,97.23,27,87,6.44,overcast clouds,0.0,0.0
14,Garowe,SO,2021-06-30 19:37:15,8.4054,48.4845,85.41,32,63,22.19,broken clouds,0.0,0.0
15,Derzhavinsk,KZ,2021-06-30 19:37:15,51.1,66.3167,73.31,41,0,8.72,clear sky,0.0,0.0
16,Cape Town,ZA,2021-06-30 19:35:32,-33.9258,18.4232,57.88,89,90,8.01,heavy intensity rain,0.0,0.0
17,Qaanaaq,GL,2021-06-30 19:37:16,77.484,-69.3632,37.62,78,94,6.53,overcast clouds,0.0,0.0
18,Busselton,AU,2021-06-30 19:37:16,-33.65,115.3333,48.04,81,35,8.88,scattered clouds,0.0,0.0
19,Khatanga,RU,2021-06-30 19:37:16,71.9667,102.5,60.82,55,100,5.64,overcast clouds,0.0,0.0
20,Bluff,NZ,2021-06-30 19:37:16,-46.6,168.3333,37.8,87,98,7.11,overcast clouds,0.0,0.0
21,Kaltasy,RU,2021-06-30 19:37:17,55.9693,54.8032,72.77,83,32,6.4,very heavy rain,0.0,0.0
22,Margate,GB,2021-06-30 19:37:17,51.3813,1.3862,60.96,82,100,3.0,overcast clouds,0.0,0.0
23,Longyearbyen,SJ,2021-06-30 19:37:18,78.2186,15.6401,44.44,81,75,3.44,light rain,0.0,0.0
24,Narsaq,GL,2021-06-30 19:37:18,60.9167,-46.05,57.42,64,11,7.74,few clouds,0.0,0.0
25,Saint-Philippe,RE,2021-06-30 19:37:18,-21.3585,55.7679,71.19,85,47,13.33,light rain,0.0,0.0
26,Yellowknife,CA,2021-06-30 19:37:19,62.456,-114.3525,86.32,44,75,4.61,broken clouds,0.0,0.0
27,Hasaki,JP,2021-06-30 19:37:19,35.7333,140.8333,70.29,87,100,9.8,heavy intensity rain,0.0,0.0
28,Ribeira Grande,PT,2021-06-30 19:37:19,38.5167,-28.7,68.4,94,75,16.11,broken clouds,0.0,0.0
29,Lagoa,PT,2021-06-30 19:37:19,39.05,-27.9833,68.41,86,100,18.92,overcast clouds,0.0,0.0
30,Sorland,NO,2021-06-30 19:37:20,67.667,12.6934,51.66,85,89,15.57,overcast clouds,0.0,0.0
31,Cidreira,BR,2021-06-30 19:37:20,-30.1811,-50.2056,52.25,81,74,15.12,broken clouds,0.0,0.0
32,Rikitea,PF,2021-06-30 19:37:21,-23.1203,-134.9692,73.58,79,6,10.94,light rain,0.0,0.0
33,Ushuaia,AR,2021-06-30 19:36:40,-54.8,-68.3,42.42,87,20,4.61,few clouds,0.0,0.0
34,Adrar,MR,2021-06-30 19:37:21,20.5022,-10.0711,97.86,9,25,12.03,scattered clouds,0.0,0.0
35,Albany,US,2021-06-30 19:35:16,42.6001,-73.9662,90.54,70,23,14.99,light rain,0.0,0.0
36,Grindavik,IS,2021-06-30 19:37:21,63.8424,-22.4338,53.55,93,90,19.57,overcast clouds,0.0,0.0
37,Lianran,CN,2021-06-30 19:37:22,24.9227,102.485,63.14,98,100,1.97,light rain,0.0,0.0
38,Emerald,AU,2021-06-30 19:37:22,-23.5333,148.1667,60.35,79,100,8.23,overcast clouds,0.0,0.0
39,Palmer,US,2021-06-30 19:37:23,42.1584,-72.3287,98.65,48,75,8.05,broken clouds,0.0,0.0
40,Butaritari,KI,2021-06-30 19:37:23,3.0707,172.7902,82.9,74,11,15.43,light rain,0.0,0.0
41,Saint-Joseph,RE,2021-06-30 19:37:23,-21.3667,55.6167,70.18,81,23,13.24,light rain,0.0,0.0
42,Caravelas,BR,2021-06-30 19:37:24,-17.7125,-39.2481,73.83,77,8,12.33,clear sky,0.0,0.0
43,Geraldton,AU,2021-06-30 19:37:24,-28.7667,114.6,46.81,87,0,9.22,clear sky,0.0,0.0
44,Miri,MY,2021-06-30 19:37:24,4.4148,114.0089,77.14,94,40,6.91,scattered clouds,0.0,0.0
45,Kuantan,MY,2021-06-30 19:37:25,3.8077,103.326,78.91,94,20,0.0,few clouds,0.0,0.0
46,Upernavik,GL,2021-06-30 19:37:25,72.7868,-56.1549,35.22,98,100,28.83,moderate rain,0.0,0.0
47,Hay River,CA,2021-06-30 19:37:25,60.8156,-115.7999,73.36,73,40,6.91,scattered clouds,0.0,0.0
48,Nabire,ID,2021-06-30 19:37:26,-3.3667,135.4833,75.22,90,77,3.11,broken clouds,0.0,0.0
49,Punta Arenas,CL,2021-06-30 19:37:26,-53.15,-70.9167,44.71,70,0,8.05,clear sky,0.0,0.0
50,Bolu,TR,2021-06-30 19:37:26,40.6667,31.5833,66.11,74,0,2.17,clear sky,0.0,0.0
51,Muros,ES,2021-06-30 19:37:27,42.7762,-9.0603,72.68,68,8,6.51,clear sky,0.0,0.0
52,Sao Filipe,CV,2021-06-30 19:37:27,14.8961,-24.4956,73.71,77,16,6.91,few clouds,0.0,0.0
53,Hithadhoo,MV,2021-06-30 19:37:27,-0.6,73.0833,82.81,74,58,11.18,moderate rain,0.0,0.0
54,Atuona,PF,2021-06-30 19:33:11,-9.8,-139.0333,78.62,78,100,23.73,overcast clouds,0.0,0.0
55,Kapaa,US,2021-06-30 19:37:28,22.0752,-159.319,84.52,75,40,1.99,light rain,0.0,0.0
56,Bataipora,BR,2021-06-30 19:37:28,-22.2953,-53.2711,59.85,41,0,4.16,clear sky,0.0,0.0
57,Saldanha,ZA,2021-06-30 19:37:28,-33.0117,17.9442,57.25,89,100,29.1,light rain,0.0,0.0
58,Leh,IN,2021-06-30 19:37:29,34.1667,77.5833,58.87,31,0,5.82,clear sky,0.0,0.0
59,Akdepe,TM,2021-06-30 19:37:29,42.0551,59.3788,93.2,25,84,9.13,broken clouds,0.0,0.0
60,Cayenne,GF,2021-06-30 19:37:29,4.9333,-52.3333,81.09,83,90,1.99,overcast clouds,0.0,0.0
61,Paka,MY,2021-06-30 19:37:30,4.6374,103.4368,75.13,94,100,0.0,overcast clouds,0.0,0.0
62,Thompson,CA,2021-06-30 19:37:30,55.7435,-97.8558,77.16,41,20,5.75,few clouds,0.0,0.0
63,North Bend,US,2021-06-30 19:37:30,43.4065,-124.2243,65.16,82,90,9.22,overcast clouds,0.0,0.0
64,Constitucion,CL,2021-06-30 19:37:30,-35.3333,-72.4167,55.53,66,92,5.48,overcast clouds,0.0,0.0
65,Lebu,CL,2021-06-30 19:37:31,-37.6167,-73.65,52.88,88,97,9.6,overcast clouds,0.0,0.0
66,Carnarvon,AU,2021-06-30 19:37:31,-24.8667,113.6333,51.87,60,0,9.22,clear sky,0.0,0.0
67,Luderitz,NA,2021-06-30 19:37:31,-26.6481,15.1594,57.69,74,0,2.06,clear sky,0.0,0.0
68,Husavik,IS,2021-06-30 19:37:32,66.0449,-17.3389,66.11,69,1,2.08,clear sky,0.0,0.0
69,Mackay,AU,2021-06-30 19:37:32,-21.15,149.2,68.68,88,90,6.91,overcast clouds,0.0,0.0
70,Bengkulu,ID,2021-06-30 19:37:32,-3.8004,102.2655,77.22,82,100,4.68,overcast clouds,0.0,0.0
71,Sao Jose Dos Pinhais,BR,2021-06-30 19:37:33,-25.5347,-49.2064,55.74,52,0,4.61,clear sky,0.0,0.0
72,Periyapatti,IN,2021-06-30 19:37:33,10.75,77.2667,78.01,82,100,16.73,overcast clouds,0.0,0.0
73,Castro,BR,2021-06-30 19:37:33,-24.7911,-50.0119,49.12,66,0,2.91,clear sky,0.0,0.0
74,Antsohihy,MG,2021-06-30 19:37:34,-14.8796,47.9875,70.65,66,68,8.52,broken clouds,0.0,0.0
75,Ocos,GT,2021-06-30 19:37:34,14.5094,-92.1933,91.9,71,84,4.27,broken clouds,0.0,0.0
76,Dikson,RU,2021-06-30 19:37:34,73.5069,80.5464,32.97,89,8,2.26,clear sky,0.0,0.0
77,Hansi,IN,2021-06-30 19:37:35,29.1,75.9667,99.01,18,11,8.66,few clouds,0.0,0.0
78,Ahipara,NZ,2021-06-30 19:37:35,-35.1667,173.1667,48.24,84,9,5.82,clear sky,0.0,0.0
79,Esperance,AU,2021-06-30 19:37:35,-33.8667,121.9,49.84,70,31,17.94,scattered clouds,0.0,0.0
80,Jamestown,US,2021-06-30 19:37:26,42.097,-79.2353,78.39,94,90,5.01,overcast clouds,0.0,0.0
81,Salalah,OM,2021-06-30 19:37:36,17.0151,54.0924,82.49,78,75,4.61,broken clouds,0.0,0.0
82,Hermanus,ZA,2021-06-30 19:37:36,-34.4187,19.2345,59.81,79,96,30.0,moderate rain,0.0,0.0
83,Avarua,CK,2021-06-30 19:37:36,-21.2078,-159.775,78.85,83,40,10.36,scattered clouds,0.0,0.0
84,Tiksi,RU,2021-06-30 19:37:37,71.6872,128.8694,36.95,84,88,2.48,overcast clouds,0.0,0.0
85,Pyapon,MM,2021-06-30 19:37:37,16.2833,95.6833,79.09,88,96,4.65,overcast clouds,0.0,0.0
86,Gubkinskiy,RU,2021-06-30 19:37:37,64.434,76.5026,58.71,45,100,9.53,overcast clouds,0.0,0.0
87,Ostrovnoy,RU,2021-06-30 19:37:38,68.0531,39.5131,44.22,93,13,12.12,few clouds,0.0,0.0
88,Tamluk,IN,2021-06-30 19:37:38,22.3,87.9167,80.58,86,100,15.21,heavy intensity rain,0.0,0.0
89,Sikeston,US,2021-06-30 19:37:38,36.8767,-89.5879,91.44,53,87,5.12,moderate rain,0.0,0.0
90,Benghazi,LY,2021-06-30 19:37:39,32.1167,20.0667,83.84,57,0,11.01,clear sky,0.0,0.0
91,Vanavara,RU,2021-06-30 19:37:39,60.34,102.2797,56.28,80,100,4.12,overcast clouds,0.0,0.0
92,Sistranda,NO,2021-06-30 19:37:39,63.7256,8.834,58.96,82,57,18.57,broken clouds,0.0,0.0
93,Davila,PH,2021-06-30 19:37:40,18.4726,120.5763,81.73,83,100,9.35,overcast clouds,0.0,0.0
94,Mar Del Plata,AR,2021-06-30 19:37:19,-38.0023,-57.5575,50.13,54,0,10.0,clear sky,0.0,0.0
95,Itaqui,BR,2021-06-30 19:37:40,-29.1253,-56.5531,52.99,69,0,6.15,clear sky,0.0,0.0
96,New Norfolk,AU,2021-06-30 19:37:41,-42.7826,147.0587,46.9,82,8,2.57,clear sky,0.0,0.0
97,Kodiak,US,2021-06-30 19:33:16,57.79,-152.4072,53.11,76,90,4.61,overcast clouds,0.0,0.0
98,Mahibadhoo,MV,2021-06-30 19:37:41,3.7833,72.9667,82.72,76,20,12.06,few clouds,0.0,0.0
99,Isangel,VU,2021-06-30 19:37:41,-19.55,169.2667,69.76,62,42,16.78,scattered clouds,0.0,0.0
100,Etchoropo,MX,2021-06-30 19:37:42,26.7667,-109.6667,80.49,74,100,10.02,overcast clouds,0.0,0.0
101,Tombouctou,ML,2021-06-30 19:37:42,20.0,-3.0,98.85,20,1,8.88,clear sky,0.0,0.0
102,San Patricio,US,2021-06-30 19:37:42,28.017,-97.5169,89.69,55,100,11.63,overcast clouds,0.0,0.0
103,Bethel,US,2021-06-30 19:37:43,41.3712,-73.414,99.81,52,1,9.22,clear sky,0.0,0.0
104,Karratha,AU,2021-06-30 19:37:43,-20.7377,116.8463,70.0,51,3,10.76,clear sky,0.0,0.0
105,Kahului,US,2021-06-30 19:37:43,20.8947,-156.47,84.94,70,40,12.66,scattered clouds,0.0,0.0
106,Clyde River,CA,2021-06-30 19:37:44,70.4692,-68.5914,53.83,76,75,6.91,broken clouds,0.0,0.0
107,Redmond,US,2021-06-30 19:32:51,47.674,-122.1215,82.98,66,15,6.13,few clouds,0.0,0.0
108,Dandong,CN,2021-06-30 19:37:44,40.1292,124.3947,66.58,98,96,4.43,overcast clouds,0.0,0.0
109,Saint George,US,2021-06-30 19:37:44,37.1041,-113.5841,91.8,28,1,7.0,clear sky,0.0,0.0
110,Ulaangom,MN,2021-06-30 19:37:45,49.9811,92.0667,59.58,50,9,2.64,clear sky,0.0,0.0
111,Namibe,AO,2021-06-30 19:37:45,-15.1961,12.1522,66.49,76,1,10.13,clear sky,0.0,0.0
112,Severo-Kurilsk,RU,2021-06-30 19:37:45,50.6789,156.125,46.53,94,86,11.95,overcast clouds,0.0,0.0
113,Kaitangata,NZ,2021-06-30 19:37:46,-46.2817,169.8464,43.93,87,59,4.25,broken clouds,0.0,0.0
114,Nanortalik,GL,2021-06-30 19:37:46,60.1432,-45.2371,43.97,78,39,9.84,scattered clouds,0.0,0.0
115,Buraydah,SA,2021-06-30 19:34:29,26.326,43.975,95.45,7,1,9.01,clear sky,0.0,0.0
116,Oyama,JP,2021-06-30 19:37:47,36.3,139.8,70.83,95,100,3.02,light rain,0.0,0.0
117,Pangnirtung,CA,2021-06-30 19:37:47,66.1451,-65.7125,41.0,87,90,8.05,overcast clouds,0.0,0.0
118,Iskateley,RU,2021-06-30 19:37:47,67.6803,53.1512,52.36,90,100,10.04,overcast clouds,0.0,0.0
119,Aswan,EG,2021-06-30 19:37:47,24.0934,32.907,97.61,15,0,15.68,clear sky,0.0,0.0
120,Taltal,CL,2021-06-30 19:37:48,-25.4,-70.4833,63.14,62,52,4.21,broken clouds,0.0,0.0
121,Prince Rupert,CA,2021-06-30 19:37:48,54.3161,-130.3201,60.49,93,40,6.91,scattered clouds,0.0,0.0
122,San Quintin,MX,2021-06-30 19:37:49,30.4833,-115.95,74.12,64,3,9.04,clear sky,0.0,0.0
123,Rio Gallegos,AR,2021-06-30 19:34:40,-51.6226,-69.2181,41.05,81,0,2.3,clear sky,0.0,0.0
124,Nishihara,JP,2021-06-30 19:37:49,26.1842,127.7558,79.88,94,75,12.66,broken clouds,0.0,0.0
125,Kavieng,PG,2021-06-30 19:37:50,-2.5744,150.7967,80.22,81,98,6.69,light rain,0.0,0.0
126,Krasnoselkup,RU,2021-06-30 19:37:50,65.7,82.4667,52.5,65,94,7.92,overcast clouds,0.0,0.0
127,Kuah,MY,2021-06-30 19:37:50,6.3265,99.8432,78.8,94,20,0.0,few clouds,0.0,0.0
128,Mogadishu,SO,2021-06-30 19:37:51,2.0371,45.3438,77.27,79,36,17.38,scattered clouds,0.0,0.0
129,Adolfo Ruiz Cortines,MX,2021-06-30 19:37:51,25.75,-108.75,88.03,72,100,8.46,overcast clouds,0.0,0.0
130,Nara,JP,2021-06-30 19:37:51,34.6851,135.8049,72.97,96,100,11.5,overcast clouds,0.0,0.0
131,Pevek,RU,2021-06-30 19:37:51,69.7008,170.3133,34.57,75,40,15.03,scattered clouds,0.0,0.0
132,Casino,AU,2021-06-30 19:37:52,-28.8667,153.05,64.15,100,95,5.75,overcast clouds,0.0,0.0
133,Sabang,ID,2021-06-30 19:37:52,5.8933,95.3214,81.7,75,87,5.46,overcast clouds,0.0,0.0
134,Sitka,US,2021-06-30 19:33:10,57.0531,-135.33,58.89,67,75,14.97,broken clouds,0.0,0.0
135,Carman,CA,2021-06-30 19:37:53,49.4992,-98.0016,86.65,39,2,5.75,clear sky,0.0,0.0
136,Chokurdakh,RU,2021-06-30 19:37:53,70.6333,147.9167,43.92,51,3,10.89,clear sky,0.0,0.0
137,Port Keats,AU,2021-06-30 19:37:53,-14.25,129.55,69.84,54,0,8.68,clear sky,0.0,0.0
138,Georgetown,MY,2021-06-30 19:34:40,5.4112,100.3354,79.9,87,20,1.01,few clouds,0.0,0.0
139,Bredasdorp,ZA,2021-06-30 19:37:54,-34.5322,20.0403,60.12,55,58,14.97,light rain,0.0,0.0
140,Kidal,ML,2021-06-30 19:37:54,18.4411,1.4078,89.92,34,80,15.68,broken clouds,0.0,0.0
141,Troitskoye,RU,2021-06-30 19:37:54,52.9821,84.6757,60.3,87,100,3.2,overcast clouds,0.0,0.0
142,Mossendjo,CG,2021-06-30 19:37:55,-2.9506,12.7261,70.56,82,95,4.18,overcast clouds,0.0,0.0
143,Vestmannaeyjar,IS,2021-06-30 19:37:55,63.4427,-20.2734,50.99,100,90,6.91,drizzle,0.0,0.0
144,Nemuro,JP,2021-06-30 19:37:55,43.3236,145.575,52.65,88,100,5.44,overcast clouds,0.0,0.0
145,Kovur,IN,2021-06-30 19:37:56,14.4833,79.9833,86.61,69,99,11.43,overcast clouds,0.0,0.0
146,Maragogi,BR,2021-06-30 19:37:56,-9.0122,-35.2225,75.76,86,39,5.53,scattered clouds,0.0,0.0
147,Acari,PE,2021-06-30 19:37:56,-15.4311,-74.6158,74.08,50,3,7.58,clear sky,0.0,0.0
148,Viedma,AR,2021-06-30 19:37:57,-40.8135,-62.9967,51.22,31,100,21.56,overcast clouds,0.0,0.0
149,Dhidhdhoo,MV,2021-06-30 19:37:57,6.8833,73.1,82.76,76,93,17.49,overcast clouds,0.0,0.0
150,Touros,BR,2021-06-30 19:37:57,-5.1989,-35.4608,79.7,89,99,9.57,overcast clouds,0.0,0.0
151,Ketchikan,US,2021-06-30 19:37:57,55.3422,-131.6461,66.67,59,1,14.97,clear sky,0.0,0.0
152,Caluquembe,AO,2021-06-30 19:37:58,-13.7833,14.6833,59.23,24,100,2.64,overcast clouds,0.0,0.0
153,Fairbanks,US,2021-06-30 19:37:58,64.8378,-147.7164,68.02,54,1,1.01,clear sky,0.0,0.0
154,Leningradskiy,RU,2021-06-30 19:37:58,69.3833,178.4167,33.96,87,100,10.09,light rain,0.0,0.0
155,Bambous Virieux,MU,2021-06-30 19:37:59,-20.3428,57.7575,73.65,83,75,18.41,light rain,0.0,0.0
156,Lorengau,PG,2021-06-30 19:37:59,-2.0226,147.2712,80.64,78,16,7.29,few clouds,0.0,0.0
157,Am Timan,TD,2021-06-30 19:37:59,11.0297,20.2827,80.69,53,91,5.59,overcast clouds,0.0,0.0
158,Urengoy,RU,2021-06-30 19:38:00,65.9667,78.3667,51.13,59,67,6.42,broken clouds,0.0,0.0
159,Necaxa,MX,2021-06-30 19:38:00,20.2167,-98.0,70.32,82,100,4.09,overcast clouds,0.0,0.0
160,Plettenberg Bay,ZA,2021-06-30 19:38:00,-34.0527,23.3716,58.82,52,1,9.48,clear sky,0.0,0.0
161,Arraial Do Cabo,BR,2021-06-30 19:38:01,-22.9661,-42.0278,66.06,63,75,21.85,broken clouds,0.0,0.0
162,Varena,LT,2021-06-30 19:38:01,54.2167,24.5667,74.05,80,19,5.7,few clouds,0.0,0.0
163,Nikolskoye,RU,2021-06-30 19:38:01,59.7035,30.7861,73.29,71,0,2.66,clear sky,0.0,0.0
164,Dharmanagar,IN,2021-06-30 19:38:02,24.3667,92.1667,76.51,94,100,5.17,light rain,0.0,0.0
165,Saint-Augustin,CA,2021-06-30 19:38:02,51.226,-58.6502,59.0,77,100,1.68,overcast clouds,0.0,0.0
166,Dongsheng,CN,2021-06-30 19:38:02,39.8161,109.9776,68.27,21,100,7.2,overcast clouds,0.0,0.0
167,Pahrump,US,2021-06-30 19:35:04,36.2083,-115.9839,91.26,30,94,3.0,overcast clouds,0.0,0.0
168,Vanimo,PG,2021-06-30 19:38:03,-2.6741,141.3028,75.33,88,100,3.91,light rain,0.0,0.0
169,Port Alfred,ZA,2021-06-30 19:38:03,-33.5906,26.891,60.53,44,27,9.01,scattered clouds,0.0,0.0
170,Kampong Cham,KH,2021-06-30 19:38:03,11.9934,105.4635,78.33,81,28,6.26,scattered clouds,0.0,0.0
171,Lompoc,US,2021-06-30 19:38:04,34.6391,-120.4579,85.69,75,40,13.8,scattered clouds,0.0,0.0
172,Takoradi,GH,2021-06-30 19:38:04,4.8845,-1.7554,77.14,84,100,8.01,overcast clouds,0.0,0.0
173,Matagami,CA,2021-06-30 19:38:04,49.7502,-77.6328,69.91,43,1,13.8,clear sky,0.0,0.0
174,Mount Isa,AU,2021-06-30 19:38:05,-20.7333,139.5,58.77,47,5,8.05,clear sky,0.0,0.0
175,Wawa,NG,2021-06-30 19:38:05,9.9022,4.4192,81.75,64,94,1.97,light rain,0.0,0.0
176,Comodoro Rivadavia,AR,2021-06-30 19:38:05,-45.8667,-67.5,55.26,54,0,3.44,clear sky,0.0,0.0
177,Berlevag,NO,2021-06-30 19:38:06,70.8578,29.0864,51.8,71,75,6.91,broken clouds,0.0,0.0
178,Piacabucu,BR,2021-06-30 19:38:06,-10.4056,-36.4344,75.94,83,99,7.34,overcast clouds,0.0,0.0
179,Tuatapere,NZ,2021-06-30 19:38:06,-46.1333,167.6833,37.81,90,88,3.78,overcast clouds,0.0,0.0
180,Chaman,PK,2021-06-30 19:38:07,30.9236,66.4512,80.08,11,0,5.97,clear sky,0.0,0.0
181,Mehamn,NO,2021-06-30 19:38:07,71.0357,27.8492,51.98,66,75,13.8,broken clouds,0.0,0.0
182,Vostok,RU,2021-06-30 19:38:07,46.4856,135.8833,54.03,99,100,3.15,moderate rain,0.0,0.0
183,Puerto Ayora,EC,2021-06-30 19:38:08,-0.7393,-90.3518,80.56,84,55,7.0,broken clouds,0.0,0.0
184,Aklavik,CA,2021-06-30 19:38:08,68.2191,-135.0107,65.12,55,75,3.44,broken clouds,0.0,0.0
185,Haveri,IN,2021-06-30 19:38:08,14.8,75.4,74.44,88,100,10.94,overcast clouds,0.0,0.0
186,Tarko-Sale,RU,2021-06-30 19:38:09,64.9225,77.785,55.9,48,100,6.31,overcast clouds,0.0,0.0
187,Bowen,AU,2021-06-30 19:38:09,-20.0167,148.2333,68.22,89,70,10.13,broken clouds,0.0,0.0
188,Mount Gambier,AU,2021-06-30 19:38:09,-37.8333,140.7667,48.11,100,90,5.75,overcast clouds,0.0,0.0
189,Gobabis,NA,2021-06-30 19:38:10,-22.45,18.9667,56.66,26,15,7.9,few clouds,0.0,0.0
190,Acapulco,MX,2021-06-30 19:38:10,16.8634,-99.8901,85.82,70,75,9.22,broken clouds,0.0,0.0
191,Palembang,ID,2021-06-30 19:38:10,-2.9167,104.7458,74.59,90,100,3.15,overcast clouds,0.0,0.0
192,College,US,2021-06-30 19:38:11,64.8569,-147.8028,68.0,52,75,10.36,broken clouds,0.0,0.0
193,Careiro Da Varzea,BR,2021-06-30 19:38:11,-3.2003,-59.8119,79.43,48,2,0.92,light rain,0.0,0.0
194,Wagar,SD,2021-06-30 19:38:11,16.1525,36.2032,90.01,40,99,18.75,overcast clouds,0.0,0.0
195,Kuching,MY,2021-06-30 19:38:12,1.55,110.3333,75.42,94,40,0.0,scattered clouds,0.0,0.0
196,Port Elizabeth,ZA,2021-06-30 19:38:12,-33.918,25.5701,65.1,87,20,4.61,few clouds,0.0,0.0
197,Tarrafal,CV,2021-06-30 19:38:12,15.2833,-23.7667,79.59,83,3,13.91,clear sky,0.0,0.0
198,Lincoln,US,2021-06-30 19:35:50,40.8,-96.667,84.79,62,1,1.99,clear sky,0.0,0.0
199,Khvalynsk,RU,2021-06-30 19:38:13,52.4906,48.1058,65.73,91,0,6.4,clear sky,0.0,0.0
200,Daru,PG,2021-06-30 19:38:13,-9.0763,143.2092,77.09,90,100,15.08,overcast clouds,0.0,0.0
201,Hue,VN,2021-06-30 19:36:09,16.4667,107.6,87.91,58,20,4.61,few clouds,0.0,0.0
202,Provideniya,RU,2021-06-30 19:38:14,64.3833,-173.3,44.71,93,90,6.71,overcast clouds,0.0,0.0
203,Porto Novo,BJ,2021-06-30 19:38:14,6.4965,2.6036,80.42,81,51,5.59,broken clouds,0.0,0.0
204,Kalabo,ZM,2021-06-30 19:38:14,-14.97,22.6814,60.17,27,54,5.01,broken clouds,0.0,0.0
205,Ngunguru,NZ,2021-06-30 19:38:15,-35.6167,174.5,43.16,72,0,9.04,clear sky,0.0,0.0
206,Coihaique,CL,2021-06-30 19:38:15,-45.5752,-72.0662,43.41,93,90,0.0,overcast clouds,0.0,0.0
207,Oka,CA,2021-06-30 19:34:42,45.4649,-74.0889,86.25,85,92,5.75,overcast clouds,0.0,0.0
208,Navrongo,GH,2021-06-30 19:38:15,10.8956,-1.0921,87.4,49,100,6.35,overcast clouds,0.0,0.0
209,Kelowna,CA,2021-06-30 19:36:54,49.8831,-119.4857,116.65,23,1,2.3,clear sky,0.0,0.0
210,Maceio,BR,2021-06-30 19:38:16,-9.6658,-35.7353,74.64,94,90,6.91,overcast clouds,0.0,0.0
211,Cozumel,MX,2021-06-30 19:36:46,20.5083,-86.9458,82.99,83,90,8.01,overcast clouds,0.0,0.0
212,Houston,US,2021-06-30 19:36:38,29.7633,-95.3633,93.56,64,20,4.0,few clouds,0.0,0.0
213,Sterling,US,2021-06-30 19:35:55,39.0062,-77.4286,98.76,47,40,1.01,scattered clouds,0.0,0.0
214,Killybegs,IE,2021-06-30 19:38:16,54.6333,-8.45,56.91,89,100,5.84,overcast clouds,0.0,0.0
215,Baiyin,CN,2021-06-30 19:38:17,36.5583,104.2081,56.28,57,99,10.4,overcast clouds,0.0,0.0
216,Naze,JP,2021-06-30 19:38:18,28.3667,129.4833,76.68,89,100,19.89,moderate rain,0.0,0.0
217,Kimbe,PG,2021-06-30 19:38:18,-5.5502,150.1429,73.99,91,21,4.27,few clouds,0.0,0.0
218,Nome,US,2021-06-30 19:38:18,64.5011,-165.4064,51.87,87,90,9.22,light rain,0.0,0.0
219,Tingi,TZ,2021-06-30 19:38:19,-11.3,35.0333,58.8,68,6,3.06,clear sky,0.0,0.0
220,Avera,US,2021-06-30 19:38:19,33.194,-82.5271,91.9,48,99,5.99,overcast clouds,0.0,0.0
221,Iseyin,NG,2021-06-30 19:38:20,7.9667,3.6,74.44,87,98,6.17,overcast clouds,0.0,0.0
222,Zhuanghe,CN,2021-06-30 19:38:20,39.7008,122.9911,67.05,97,57,3.11,heavy intensity rain,0.0,0.0
223,Pecos,US,2021-06-30 19:38:20,31.4229,-103.4932,81.05,88,75,9.22,broken clouds,0.0,0.0
224,Coquimbo,CL,2021-06-30 19:38:21,-29.9533,-71.3436,55.13,76,75,10.36,broken clouds,0.0,0.0
225,Korla,CN,2021-06-30 19:38:21,41.7597,86.1469,74.98,33,0,12.55,clear sky,0.0,0.0
226,Cockburn Town,TC,2021-06-30 19:34:46,21.4612,-71.1419,82.36,74,40,16.11,scattered clouds,0.0,0.0
227,Buala,SB,2021-06-30 19:38:21,-8.145,159.5921,78.69,85,13,4.79,few clouds,0.0,0.0
228,Arawa,PG,2021-06-30 19:38:22,-6.2132,155.5367,75.24,91,53,4.09,broken clouds,0.0,0.0
229,Mahebourg,MU,2021-06-30 19:38:22,-20.4081,57.7,73.69,83,75,18.41,light rain,0.0,0.0
230,Mutis,CO,2021-06-30 19:38:23,6.2262,-77.4044,80.92,82,99,9.53,light rain,0.0,0.0
231,Ponta Do Sol,PT,2021-06-30 19:38:23,32.6667,-17.1,74.01,85,42,1.16,scattered clouds,0.0,0.0
232,Beloha,MG,2021-06-30 19:38:23,-25.1667,45.05,62.96,60,0,4.76,clear sky,0.0,0.0
233,Beringovskiy,RU,2021-06-30 19:38:24,63.05,179.3167,45.64,86,100,7.94,light rain,0.0,0.0
234,Port Blair,IN,2021-06-30 19:38:24,11.6667,92.75,82.08,82,100,11.39,overcast clouds,0.0,0.0
235,Maine-Soroa,NE,2021-06-30 19:38:24,13.2114,12.0241,93.97,33,10,9.75,clear sky,0.0,0.0
236,Ixtapa,MX,2021-06-30 19:38:25,20.7,-105.2,85.23,78,20,9.22,few clouds,0.0,0.0
237,Pochutla,MX,2021-06-30 19:38:25,15.7432,-96.4661,83.25,60,74,5.7,broken clouds,0.0,0.0
238,Bilibino,RU,2021-06-30 19:38:25,68.0546,166.4372,39.11,62,49,7.7,scattered clouds,0.0,0.0
239,North Platte,US,2021-06-30 19:38:26,41.1239,-100.7654,81.0,61,90,12.66,overcast clouds,0.0,0.0
240,Grand Gaube,MU,2021-06-30 19:38:26,-20.0064,57.6608,73.8,81,6,5.99,light rain,0.0,0.0
241,Alofi,NU,2021-06-30 19:38:27,-19.0595,-169.9187,75.09,94,100,10.36,overcast clouds,0.0,0.0
242,Sobolevo,RU,2021-06-30 19:38:27,54.4299,31.8996,61.93,87,6,5.84,clear sky,0.0,0.0
243,Todos Santos,MX,2021-06-30 19:38:27,23.45,-110.2167,90.19,77,97,7.65,overcast clouds,0.0,0.0
244,Yerbogachen,RU,2021-06-30 19:38:28,61.2767,108.0108,57.11,96,100,3.8,overcast clouds,0.0,0.0
245,Kargopol,RU,2021-06-30 19:38:28,61.5071,38.9456,58.15,87,100,10.02,overcast clouds,0.0,0.0
246,Airai,TL,2021-06-30 19:38:29,-8.9266,125.4092,54.64,83,11,3.24,few clouds,0.0,0.0
247,Sligo,IE,2021-06-30 19:38:29,54.2697,-8.4694,57.13,82,0,8.05,clear sky,0.0,0.0
248,Provost,CA,2021-06-30 19:38:29,52.3501,-110.2683,94.42,21,0,14.27,clear sky,0.0,0.0
249,Solnechnyy,RU,2021-06-30 19:38:31,50.7214,136.6319,51.17,99,100,3.38,overcast clouds,0.0,0.0
250,Cherskiy,RU,2021-06-30 19:38:31,68.75,161.3,42.57,57,6,13.06,clear sky,0.0,0.0
251,Mikkeli,FI,2021-06-30 19:38:31,61.6886,27.2723,65.14,63,0,3.44,clear sky,0.0,0.0
252,Tautira,PF,2021-06-30 19:38:32,-17.7333,-149.15,82.42,76,100,23.33,overcast clouds,0.0,0.0
253,Astana,KZ,2021-06-30 19:34:14,51.1801,71.446,60.75,72,0,6.71,clear sky,0.0,0.0
254,Vardo,NO,2021-06-30 19:38:32,70.3705,31.1107,52.0,81,20,10.36,few clouds,0.0,0.0
255,Chuy,UY,2021-06-30 19:38:33,-33.6971,-53.4616,53.67,85,23,3.87,few clouds,0.0,0.0
256,Whitehorse,CA,2021-06-30 19:36:09,60.7161,-135.0538,65.17,52,75,8.01,broken clouds,0.0,0.0
257,Christchurch,NZ,2021-06-30 19:38:33,-43.5333,172.6333,39.99,94,22,2.3,few clouds,0.0,0.0
258,Souillac,MU,2021-06-30 19:38:34,-20.5167,57.5167,73.78,83,75,18.41,light rain,0.0,0.0
259,Sabzevar,IR,2021-06-30 19:38:34,36.2126,57.6819,85.05,15,7,7.9,clear sky,0.0,0.0
260,Labuan,MY,2021-06-30 19:38:35,5.2767,115.2417,75.56,100,40,0.0,scattered clouds,0.0,0.0
261,Port Lincoln,AU,2021-06-30 19:38:35,-34.7333,135.8667,50.29,79,1,5.86,clear sky,0.0,0.0
262,Vila Do Maio,CV,2021-06-30 19:38:36,15.1333,-23.2167,79.59,83,1,11.1,clear sky,0.0,0.0
263,Ellisras,ZA,2021-06-30 19:38:36,-23.6649,27.7443,60.08,28,7,3.65,clear sky,0.0,0.0
264,Vao,NC,2021-06-30 19:38:36,-22.6667,167.4833,67.37,67,60,22.19,broken clouds,0.0,0.0
265,Barranca,PE,2021-06-30 19:38:37,-10.75,-77.7667,67.14,70,21,10.42,few clouds,0.0,0.0
266,Novikovo,RU,2021-06-30 19:38:37,51.1537,37.8879,62.85,88,95,5.39,overcast clouds,0.0,0.0
267,Faanui,PF,2021-06-30 19:38:37,-16.4833,-151.75,80.38,78,96,21.94,light rain,0.0,0.0
268,Brae,GB,2021-06-30 19:38:38,60.3964,-1.353,55.31,79,38,11.03,scattered clouds,0.0,0.0
269,Boa Vista,BR,2021-06-30 19:36:53,2.8197,-60.6733,85.98,58,75,13.8,broken clouds,0.0,0.0
270,Biloela,AU,2021-06-30 19:38:38,-24.4167,150.5,59.45,87,62,4.61,broken clouds,0.0,0.0
271,Pisco,PE,2021-06-30 19:38:39,-13.7,-76.2167,64.45,72,90,10.36,overcast clouds,0.0,0.0
272,Quatre Cocos,MU,2021-06-30 19:38:39,-20.2078,57.7625,73.51,81,34,17.25,light rain,0.0,0.0
273,Sinnamary,GF,2021-06-30 19:38:39,5.3833,-52.95,80.82,81,38,4.99,scattered clouds,0.0,0.0
274,Norman Wells,CA,2021-06-30 19:38:39,65.282,-126.8329,66.24,48,75,13.8,broken clouds,0.0,0.0
275,Maumere,ID,2021-06-30 19:38:40,-8.6199,122.2111,76.37,81,100,4.21,overcast clouds,0.0,0.0
276,Bismarck,US,2021-06-30 19:35:42,46.8083,-100.7837,91.24,30,1,6.91,clear sky,0.0,0.0
277,Santiago Del Estero,AR,2021-06-30 19:37:57,-27.7951,-64.2615,66.11,20,100,16.28,overcast clouds,0.0,0.0
278,Saskylakh,RU,2021-06-30 19:38:40,71.9167,114.0833,55.76,59,37,8.9,scattered clouds,0.0,0.0
279,Samarai,PG,2021-06-30 19:38:41,-10.6167,150.6667,78.49,84,100,20.8,overcast clouds,0.0,0.0
280,Ozu,JP,2021-06-30 19:38:41,33.5,132.55,74.17,94,100,4.7,overcast clouds,0.0,0.0
281,Lingao,CN,2021-06-30 19:38:41,19.9103,109.6859,82.45,73,91,10.33,overcast clouds,0.0,0.0
282,Melfort,CA,2021-06-30 19:38:42,52.8667,-104.6177,87.93,30,1,3.44,clear sky,0.0,0.0
283,Marawi,PH,2021-06-30 19:38:42,7.9986,124.2928,67.64,94,91,2.06,overcast clouds,0.0,0.0
284,Oranienburg,DE,2021-06-30 19:38:42,52.75,13.2333,64.22,99,100,1.99,light rain,0.0,0.0
285,Tazovskiy,RU,2021-06-30 19:38:43,67.4667,78.7,47.5,73,18,0.94,few clouds,0.0,0.0
286,Kudahuvadhoo,MV,2021-06-30 19:38:43,2.6708,72.8944,82.35,76,79,12.73,broken clouds,0.0,0.0
287,Sfantu Gheorghe,RO,2021-06-30 19:34:42,45.8667,25.7833,62.53,94,100,1.99,overcast clouds,0.0,0.0
288,Pangody,RU,2021-06-30 19:38:43,65.85,74.4859,57.27,48,99,9.19,overcast clouds,0.0,0.0
289,Stornoway,GB,2021-06-30 19:38:44,58.2093,-6.3865,54.93,87,40,13.8,scattered clouds,0.0,0.0
290,Ures,MX,2021-06-30 19:38:44,29.4333,-110.4,92.12,38,97,7.0,overcast clouds,0.0,0.0
291,Ambilobe,MG,2021-06-30 19:38:44,-13.2,49.05,67.5,85,1,3.36,clear sky,0.0,0.0
292,Lavrentiya,RU,2021-06-30 19:38:45,65.5833,-171.0,44.02,93,100,2.35,overcast clouds,0.0,0.0
293,Baoding,CN,2021-06-30 19:38:45,38.8511,115.4903,73.06,69,52,4.92,broken clouds,0.0,0.0
294,Nhulunbuy,AU,2021-06-30 19:38:45,-12.2333,136.7667,75.81,88,40,9.22,scattered clouds,0.0,0.0
295,Orbetello,IT,2021-06-30 19:38:46,42.4408,11.2196,80.06,73,2,4.18,clear sky,0.0,0.0
296,Thunder Bay,CA,2021-06-30 19:34:50,48.4001,-89.3168,77.99,57,75,9.22,broken clouds,0.0,0.0
297,Tarnogskiy Gorodok,RU,2021-06-30 19:38:46,60.4997,43.5761,60.78,95,100,4.14,overcast clouds,0.0,0.0
298,Gualeguay,AR,2021-06-30 19:38:46,-33.1416,-59.3097,52.63,59,100,7.74,overcast clouds,0.0,0.0
299,Sur,OM,2021-06-30 19:38:47,22.5667,59.5289,90.81,49,14,11.41,few clouds,0.0,0.0
300,Balkhash,KZ,2021-06-30 19:38:47,46.844,74.9804,74.97,41,100,12.03,overcast clouds,0.0,0.0
301,Padang,ID,2021-06-30 19:38:47,-0.9492,100.3543,79.02,70,100,3.18,overcast clouds,0.0,0.0
302,Half Moon Bay,US,2021-06-30 19:37:20,37.4636,-122.4286,82.63,75,75,1.01,mist,0.0,0.0
303,Inhambane,MZ,2021-06-30 19:38:48,-23.865,35.3833,69.78,83,0,9.22,clear sky,0.0,0.0
304,Greenville,US,2021-06-30 19:36:40,35.6127,-77.3663,91.81,61,40,9.22,scattered clouds,0.0,0.0
305,Olden,NO,2021-06-30 19:38:48,61.8364,6.8064,72.34,58,88,5.61,overcast clouds,0.0,0.0
306,Bonthe,SL,2021-06-30 19:38:48,7.5264,-12.505,78.28,84,100,6.96,overcast clouds,0.0,0.0
307,Udgir,IN,2021-06-30 19:38:49,18.3833,77.1167,80.74,70,100,4.88,moderate rain,0.0,0.0
308,Nioro,GM,2021-06-30 19:38:49,13.35,-15.75,84.45,59,33,10.83,scattered clouds,0.0,0.0
309,Poum,NC,2021-06-30 19:38:49,-20.2333,164.0167,70.16,71,100,13.44,overcast clouds,0.0,0.0
310,Lorica,CO,2021-06-30 19:38:50,9.2365,-75.8135,88.74,66,36,2.68,scattered clouds,0.0,0.0
311,Bahar,IR,2021-06-30 19:38:50,34.9072,48.4414,73.89,27,68,4.34,broken clouds,0.0,0.0
312,Florianopolis,BR,2021-06-30 19:33:58,-27.6146,-48.5012,63.12,55,40,1.99,scattered clouds,0.0,0.0
313,Doba,TD,2021-06-30 19:38:51,8.65,16.85,74.75,77,86,6.93,overcast clouds,0.0,0.0
314,Chicama,PE,2021-06-30 19:38:51,-7.8447,-79.1469,64.94,63,37,9.84,scattered clouds,0.0,0.0
315,Port Hardy,CA,2021-06-30 19:38:51,50.6996,-127.4199,59.18,88,90,6.91,mist,0.0,0.0
316,Yarada,IN,2021-06-30 19:38:52,17.65,83.2667,84.52,84,40,5.75,mist,0.0,0.0
317,Fort Nelson,CA,2021-06-30 19:38:52,58.8053,-122.7002,85.59,32,75,11.5,broken clouds,0.0,0.0
318,Ouricuri,BR,2021-06-30 19:38:52,-7.8825,-40.0817,85.3,31,91,5.55,overcast clouds,0.0,0.0
319,Alice Springs,AU,2021-06-30 19:38:53,-23.7,133.8833,40.55,75,0,6.91,clear sky,0.0,0.0
320,Klaksvik,FO,2021-06-30 19:38:53,62.2266,-6.589,49.12,91,100,6.53,overcast clouds,0.0,0.0
321,Atar,MR,2021-06-30 19:38:53,20.5169,-13.0499,98.94,11,0,8.55,clear sky,0.0,0.0
322,Bosaso,SO,2021-06-30 19:38:54,11.2842,49.1816,94.37,37,68,14.14,broken clouds,0.0,0.0
323,Ossora,RU,2021-06-30 19:38:54,59.2353,163.0719,55.87,65,100,3.04,overcast clouds,0.0,0.0
324,Yar-Sale,RU,2021-06-30 19:38:54,66.8333,70.8333,53.87,59,97,14.81,overcast clouds,0.0,0.0
325,Mandiana,GN,2021-06-30 19:38:55,10.6333,-8.6833,83.17,48,100,3.6,overcast clouds,0.0,0.0
326,Tura,IN,2021-06-30 19:38:55,25.5198,90.2201,74.25,98,100,7.81,overcast clouds,0.0,0.0
327,Tansen,NP,2021-06-30 19:38:55,27.8673,83.5467,66.92,86,80,3.44,broken clouds,0.0,0.0
328,Vila Franca Do Campo,PT,2021-06-30 19:38:56,37.7167,-25.4333,68.41,90,96,16.55,overcast clouds,0.0,0.0
329,Jhabua,IN,2021-06-30 19:38:56,22.7667,74.6,80.96,76,100,15.64,light rain,0.0,0.0
330,Northam,GB,2021-06-30 19:38:56,51.0333,-4.2167,66.29,87,95,5.41,overcast clouds,0.0,0.0
331,San Felipe,VE,2021-06-30 19:38:57,10.3399,-68.7425,82.67,69,89,1.23,overcast clouds,0.0,0.0
332,Richards Bay,ZA,2021-06-30 19:38:57,-28.783,32.0377,70.61,72,0,12.73,clear sky,0.0,0.0
333,Mayo,US,2021-06-30 19:38:57,38.8876,-76.5119,99.73,58,75,1.01,broken clouds,0.0,0.0
334,Pingdu,CN,2021-06-30 19:38:57,36.7844,119.9464,72.84,85,83,4.0,broken clouds,0.0,0.0
335,Teya,RU,2021-06-30 19:38:58,60.3778,92.6267,43.39,95,5,2.28,clear sky,0.0,0.0
336,Fortuna,US,2021-06-30 19:36:37,40.5982,-124.1573,79.41,84,90,9.22,overcast clouds,0.0,0.0
337,Aguilas,ES,2021-06-30 19:38:58,37.4063,-1.5829,83.21,78,0,4.16,clear sky,0.0,0.0
338,Kotido,UG,2021-06-30 19:38:59,2.9806,34.1331,66.97,79,90,6.2,overcast clouds,0.0,0.0
339,Miyako,JP,2021-06-30 19:38:59,39.6367,141.9525,62.65,83,83,8.48,broken clouds,0.0,0.0
340,Roros,NO,2021-06-30 19:34:25,62.5747,11.3842,58.84,47,0,6.91,clear sky,0.0,0.0
341,Saint Anthony,US,2021-06-30 19:38:59,45.0205,-93.218,88.18,37,1,1.99,clear sky,0.0,0.0
342,Henties Bay,NA,2021-06-30 19:39:00,-22.116,14.2845,57.85,90,2,9.64,clear sky,0.0,0.0
343,Lima,PE,2021-06-30 19:34:41,-12.0432,-77.0282,61.14,77,90,10.36,overcast clouds,0.0,0.0
344,Sakakah,SA,2021-06-30 19:39:00,29.9697,40.2064,98.17,13,0,8.3,clear sky,0.0,0.0
345,Bilma,NE,2021-06-30 19:39:00,18.6853,12.9164,94.59,11,0,6.26,clear sky,0.0,0.0
346,Hermosillo,MX,2021-06-30 19:36:51,29.0667,-110.9667,92.84,51,40,3.0,scattered clouds,0.0,0.0
347,Necochea,AR,2021-06-30 19:34:40,-38.5473,-58.7368,49.03,63,100,14.74,overcast clouds,0.0,0.0
348,Sao Joao Dos Patos,BR,2021-06-30 19:39:01,-6.495,-43.7022,90.37,28,56,2.19,broken clouds,0.0,0.0
349,Marsa Matruh,EG,2021-06-30 19:39:02,31.3525,27.2453,79.0,83,0,11.5,clear sky,0.0,0.0
350,Sabha,LY,2021-06-30 19:39:02,27.0377,14.4283,95.05,11,0,11.61,clear sky,0.0,0.0
351,Luzilandia,BR,2021-06-30 19:39:02,-3.4578,-42.3703,83.68,66,76,3.94,broken clouds,0.0,0.0
352,Santa Cruz Del Sur,CU,2021-06-30 19:39:03,20.7147,-77.9956,84.34,69,57,5.3,broken clouds,0.0,0.0
353,Itaituba,BR,2021-06-30 19:39:03,-4.2761,-55.9836,87.96,51,20,1.41,few clouds,0.0,0.0
354,Kottagudem,IN,2021-06-30 19:39:03,17.55,80.6333,84.45,69,100,0.43,moderate rain,0.0,0.0
355,Rockland,US,2021-06-30 19:39:04,41.1668,-74.0496,99.12,48,15,1.99,few clouds,0.0,0.0
356,Colquechaca,BO,2021-06-30 19:39:04,-18.6667,-66.0167,40.41,12,0,3.58,clear sky,0.0,0.0
357,Kalianget,ID,2021-06-30 19:39:05,-7.05,113.9333,79.75,79,37,11.03,scattered clouds,0.0,0.0
358,San Cristobal,VE,2021-06-30 19:34:35,7.7669,-72.225,71.78,74,68,6.85,broken clouds,0.0,0.0
359,Republic,US,2021-06-30 19:34:18,37.12,-93.4802,82.36,89,90,6.91,overcast clouds,0.0,0.0
360,Japura,ID,2021-06-30 19:39:05,-0.3167,102.35,73.08,78,100,2.24,overcast clouds,0.0,0.0
361,Anloga,GH,2021-06-30 19:39:05,5.7947,0.8973,80.82,80,97,10.8,overcast clouds,0.0,0.0
362,Sampit,ID,2021-06-30 19:39:06,-2.5333,112.95,74.07,97,98,0.78,heavy intensity rain,0.0,0.0
363,Ifakara,TZ,2021-06-30 19:39:06,-8.1333,36.6833,69.64,62,3,3.29,clear sky,0.0,0.0
364,San Joaquin,US,2021-06-30 19:39:06,37.9333,-121.3011,93.78,42,1,8.05,clear sky,0.0,0.0
365,Abu Dhabi,AE,2021-06-30 19:39:07,24.4667,54.3667,96.91,55,0,4.61,clear sky,0.0,0.0
366,Jian,CN,2021-06-30 19:39:07,27.1172,114.9793,76.15,97,100,2.42,overcast clouds,0.0,0.0
367,Les Cayes,HT,2021-06-30 19:39:07,18.2,-73.75,84.76,64,100,10.2,overcast clouds,0.0,0.0
368,Waddan,LY,2021-06-30 19:39:08,29.1614,16.139,96.78,12,0,18.54,clear sky,0.0,0.0
369,Gorontalo,ID,2021-06-30 19:39:08,0.5412,123.0595,73.29,95,100,2.08,overcast clouds,0.0,0.0
370,Vila Velha,BR,2021-06-30 19:37:37,-20.3297,-40.2925,69.75,73,40,14.97,scattered clouds,0.0,0.0
371,Praia,CV,2021-06-30 19:39:08,14.9215,-23.5087,79.34,61,20,10.36,few clouds,0.0,0.0
372,Maniitsoq,GL,2021-06-30 19:39:09,65.4167,-52.9,40.17,76,71,4.27,broken clouds,0.0,0.0
373,Kayes,ML,2021-06-30 19:39:09,14.0,-11.0,70.34,84,100,21.88,overcast clouds,0.0,0.0
374,Bucerias,MX,2021-06-30 19:36:31,20.75,-105.3333,85.98,78,20,9.22,few clouds,0.0,0.0
375,Brownwood,US,2021-06-30 19:36:26,31.7093,-98.9912,96.3,40,52,7.81,broken clouds,0.0,0.0
376,Flinders,AU,2021-06-30 19:39:10,-34.5833,150.8552,51.21,91,95,1.01,overcast clouds,0.0,0.0
377,Svetlaya,RU,2021-06-30 19:39:10,46.5389,138.3297,51.91,98,100,9.06,moderate rain,0.0,0.0
378,Tawau,MY,2021-06-30 19:39:10,4.2498,117.8871,77.13,94,43,3.0,scattered clouds,0.0,0.0
379,Deogarh,IN,2021-06-30 19:39:11,21.5333,84.7333,81.91,78,100,5.35,overcast clouds,0.0,0.0
380,Dryden,CA,2021-06-30 19:39:11,49.7833,-92.7503,79.09,44,40,5.75,scattered clouds,0.0,0.0
381,Shitkino,RU,2021-06-30 19:39:11,56.3703,98.3543,52.12,93,51,3.04,broken clouds,0.0,0.0
382,Olafsvik,IS,2021-06-30 19:39:12,64.8945,-23.7142,49.33,82,90,14.99,overcast clouds,0.0,0.0
383,Kashary,RU,2021-06-30 19:39:12,49.04,41.0056,66.15,76,11,7.4,few clouds,0.0,0.0
384,Cabo San Lucas,MX,2021-06-30 19:39:05,22.8909,-109.9124,90.7,62,50,8.01,scattered clouds,0.0,0.0
385,Ustye,RU,2021-06-30 19:39:12,59.6304,39.736,61.7,92,100,3.76,overcast clouds,0.0,0.0
386,Longkou,CN,2021-06-30 19:39:13,37.6508,120.3286,70.66,88,18,7.18,few clouds,0.0,0.0
387,Kantunilkin,MX,2021-06-30 19:39:13,21.0917,-87.45,82.24,90,100,4.14,overcast clouds,0.0,0.0
388,Guanica,PR,2021-06-30 19:39:13,17.9716,-66.908,89.98,68,54,11.99,broken clouds,0.0,0.0
389,Zafra,ES,2021-06-30 19:39:14,38.4167,-6.4167,84.33,16,0,7.96,clear sky,0.0,0.0
390,Banjar,ID,2021-06-30 19:39:14,-8.19,114.9675,80.46,86,21,4.25,few clouds,0.0,0.0
391,Moche,PE,2021-06-30 19:39:14,-8.1711,-79.0092,66.38,82,90,8.05,overcast clouds,0.0,0.0
392,Kaili,ID,2021-06-30 19:39:15,-3.4626,120.2147,66.76,90,100,2.08,overcast clouds,0.0,0.0
393,Takefu,JP,2021-06-30 19:39:15,35.9039,136.1669,73.06,95,100,6.53,overcast clouds,0.0,0.0
394,Dutlwe,BW,2021-06-30 19:39:15,-23.9833,23.9,61.72,22,9,9.62,clear sky,0.0,0.0
395,Cuenca,EC,2021-06-30 19:39:16,-2.8833,-78.9833,62.73,55,75,8.05,light rain,0.0,0.0
396,Hami,CN,2021-06-30 19:39:16,42.8,93.45,80.2,26,100,7.4,overcast clouds,0.0,0.0
397,Dunmore Town,BS,2021-06-30 19:39:17,25.5,-76.65,81.05,76,100,18.86,overcast clouds,0.0,0.0
398,Sadat,IN,2021-06-30 19:39:17,25.6833,83.2833,87.42,73,100,5.79,overcast clouds,0.0,0.0
399,Havre-Saint-Pierre,CA,2021-06-30 19:39:17,50.2334,-63.5986,59.36,82,90,11.5,overcast clouds,0.0,0.0
400,Sangar,RU,2021-06-30 19:39:18,63.9242,127.4739,64.31,71,94,1.86,overcast clouds,0.0,0.0
401,Barra Do Bugres,BR,2021-06-30 19:39:18,-15.0725,-57.1811,75.99,10,0,6.67,clear sky,0.0,0.0
402,Sidney,AU,2021-06-30 19:34:41,-33.8679,151.2073,52.81,97,89,6.91,fog,0.0,0.0
403,Ridgecrest,US,2021-06-30 19:39:19,35.6225,-117.6709,102.65,16,75,1.01,broken clouds,0.0,0.0
404,Dezhou,CN,2021-06-30 19:39:19,37.4486,116.2925,72.79,74,76,5.64,broken clouds,0.0,0.0
405,Dawei,MM,2021-06-30 19:39:19,14.0833,98.2,75.96,93,100,2.77,light rain,0.0,0.0
406,Cap Malheureux,MU,2021-06-30 19:39:20,-19.9842,57.6142,73.89,82,5,5.99,light rain,0.0,0.0
407,Kangaatsiaq,GL,2021-06-30 19:39:20,68.3065,-53.4641,37.33,88,99,8.3,overcast clouds,0.0,0.0
408,Vincennes,FR,2021-06-30 19:39:20,48.85,2.4333,62.89,80,90,4.61,overcast clouds,0.0,0.0
409,Balingasay,PH,2021-06-30 19:39:20,16.3573,119.8564,82.08,78,44,3.74,scattered clouds,0.0,0.0
410,Sioux Lookout,CA,2021-06-30 19:37:32,50.1001,-91.917,79.18,50,40,5.75,scattered clouds,0.0,0.0
411,Dengfeng,CN,2021-06-30 19:39:21,34.4553,113.0281,75.51,77,100,1.59,overcast clouds,0.0,0.0
412,Ribeira Brava,PT,2021-06-30 19:39:21,32.65,-17.0667,74.01,88,47,0.83,scattered clouds,0.0,0.0
413,Scottsboro,US,2021-06-30 19:39:22,34.6723,-86.0341,91.22,55,75,4.61,broken clouds,0.0,0.0
414,Tyup,KG,2021-06-30 19:37:14,42.7276,78.3648,59.34,44,0,3.83,clear sky,0.0,0.0
415,Glens Falls,US,2021-06-30 19:36:13,43.3095,-73.644,86.47,74,75,10.36,broken clouds,0.0,0.0
416,Strezhevoy,RU,2021-06-30 19:39:22,60.7333,77.5889,53.58,75,98,5.14,overcast clouds,0.0,0.0
417,Zyryanka,RU,2021-06-30 19:39:23,65.75,150.85,51.35,50,22,14.36,few clouds,0.0,0.0
418,Dingle,PH,2021-06-30 19:39:23,10.9995,122.6711,76.75,91,55,2.06,broken clouds,0.0,0.0
419,Gurlan,UZ,2021-06-30 19:39:23,41.8447,60.3919,87.71,24,40,8.97,scattered clouds,0.0,0.0
420,Kruisfontein,ZA,2021-06-30 19:39:23,-34.0033,24.7314,62.89,40,7,13.0,clear sky,0.0,0.0
421,Teberda,RU,2021-06-30 19:39:24,43.4456,41.7448,59.04,94,70,4.18,broken clouds,0.0,0.0
422,Ulladulla,AU,2021-06-30 19:39:24,-35.35,150.4667,49.1,89,0,3.96,clear sky,0.0,0.0
423,Labrea,BR,2021-06-30 19:39:24,-7.2586,-64.7981,80.53,40,17,4.83,few clouds,0.0,0.0
424,Aku,NG,2021-06-30 19:39:25,6.7081,7.3167,74.82,87,99,3.04,overcast clouds,0.0,0.0
425,Umba,RU,2021-06-30 19:39:25,66.6871,34.3429,47.91,68,7,6.08,clear sky,0.0,0.0
426,Hobyo,SO,2021-06-30 19:39:26,5.3505,48.5268,78.37,76,100,28.7,overcast clouds,0.0,0.0
427,Maracaibo,VE,2021-06-30 19:34:53,10.6317,-71.6406,89.64,52,1,5.66,clear sky,0.0,0.0
428,Akureyri,IS,2021-06-30 19:39:26,65.6835,-18.0878,66.13,48,0,17.27,clear sky,0.0,0.0
429,Tromso,NO,2021-06-30 19:39:27,69.6496,18.957,54.25,66,75,3.0,broken clouds,0.0,0.0
430,Raga,SS,2021-06-30 19:39:27,8.4596,25.678,69.82,82,73,5.1,broken clouds,0.0,0.0
431,Alekseyevsk,RU,2021-06-30 19:39:27,57.8406,108.3492,58.03,98,100,2.15,light rain,0.0,0.0
432,Queimadas,BR,2021-06-30 19:39:27,-10.9783,-39.6264,81.28,42,6,5.61,clear sky,0.0,0.0
433,General Higinio Morinigo,PY,2021-06-30 19:39:28,-25.95,-55.9167,54.88,55,0,2.17,clear sky,0.0,0.0
434,Zhigansk,RU,2021-06-30 19:39:28,66.7697,123.3711,61.16,69,97,6.78,overcast clouds,0.0,0.0
435,Bundaberg,AU,2021-06-30 19:39:29,-24.85,152.35,63.21,94,75,3.0,broken clouds,0.0,0.0
436,Port Hedland,AU,2021-06-30 19:39:29,-20.3167,118.5667,69.85,46,1,12.66,clear sky,0.0,0.0
437,Wellington,NZ,2021-06-30 19:36:37,-41.2866,174.7756,49.66,73,75,18.41,broken clouds,0.0,0.0
438,Isla Vista,US,2021-06-30 19:39:29,34.4133,-119.861,87.28,88,90,4.61,overcast clouds,0.0,0.0
439,Victoria,HK,2021-06-30 19:39:30,22.2855,114.1577,85.32,90,96,1.01,overcast clouds,0.0,0.0
440,Faya,SA,2021-06-30 19:39:30,18.3851,42.4509,71.71,42,31,2.75,scattered clouds,0.0,0.0
441,Manta,EC,2021-06-30 19:39:30,-0.95,-80.7333,76.78,78,90,9.22,overcast clouds,0.0,0.0
442,Sawtell,AU,2021-06-30 19:39:31,-30.3833,153.1,57.18,99,90,0.0,light rain,0.0,0.0
443,Los Llanos De Aridane,ES,2021-06-30 19:39:31,28.6585,-17.9182,68.13,90,75,13.8,broken clouds,0.0,0.0
444,Puerto Del Rosario,ES,2021-06-30 19:39:31,28.5004,-13.8627,71.35,68,20,18.41,few clouds,0.0,0.0
445,Segou,ML,2021-06-30 19:39:32,13.4317,-6.2157,93.99,32,100,8.46,overcast clouds,0.0,0.0
446,Namatanai,PG,2021-06-30 19:39:32,-3.6667,152.4333,78.4,83,23,5.12,few clouds,0.0,0.0
447,Asau,RO,2021-06-30 19:39:32,46.4333,26.4,68.95,80,100,5.1,overcast clouds,0.0,0.0
448,Kerema,PG,2021-06-30 19:39:32,-7.9631,145.7785,76.35,90,62,4.83,broken clouds,0.0,0.0
449,Batagay-Alyta,RU,2021-06-30 19:39:33,67.8006,130.4114,57.79,76,100,2.86,overcast clouds,0.0,0.0
450,Kavaratti,IN,2021-06-30 19:39:33,10.5669,72.642,83.03,76,96,18.68,heavy intensity rain,0.0,0.0
451,Nizhnyaya Omka,RU,2021-06-30 19:39:33,55.4338,74.9426,64.51,97,53,6.46,broken clouds,0.0,0.0
452,Mwanza,TZ,2021-06-30 19:39:34,-2.5167,32.9,71.65,78,20,0.0,few clouds,0.0,0.0
453,Bria,CF,2021-06-30 19:39:34,6.5423,21.9863,68.76,93,11,1.39,few clouds,0.0,0.0
454,Koslan,RU,2021-06-30 19:39:34,63.4564,48.8989,61.93,95,72,7.92,broken clouds,0.0,0.0
455,Mindif,CM,2021-06-30 19:39:35,10.3976,14.4363,76.37,83,91,7.56,moderate rain,0.0,0.0
456,Baoning,CN,2021-06-30 19:39:35,25.3378,110.026,78.66,94,40,0.0,light rain,0.0,0.0
457,Ancud,CL,2021-06-30 19:39:35,-41.8697,-73.8203,53.13,90,58,8.52,light rain,0.0,0.0
458,Assiniboia,CA,2021-06-30 19:39:36,49.6334,-105.9845,89.51,26,0,10.36,clear sky,0.0,0.0
459,Krutikha,RU,2021-06-30 19:35:20,53.9599,81.2093,61.79,96,99,1.23,overcast clouds,0.0,0.0
460,Torbay,CA,2021-06-30 19:39:36,47.6666,-52.7314,66.88,61,90,13.8,overcast clouds,0.0,0.0
461,Valea Crisului,RO,2021-06-30 19:39:36,45.9167,25.7667,61.65,94,100,1.3,overcast clouds,0.0,0.0
462,Korampallam,IN,2021-06-30 19:39:37,8.7667,78.1,84.24,68,78,8.81,broken clouds,0.0,0.0
463,Aripuana,BR,2021-06-30 19:39:37,-9.1667,-60.6333,82.54,30,2,4.36,clear sky,0.0,0.0
464,Taoudenni,ML,2021-06-30 19:39:37,22.6783,-3.9836,104.95,9,0,5.93,clear sky,0.0,0.0
465,Moerai,PF,2021-06-30 19:39:38,-22.4333,-151.3333,76.01,87,90,16.8,overcast clouds,0.0,0.0
466,Juneau,US,2021-06-30 19:35:18,58.3019,-134.4197,60.8,69,90,1.99,overcast clouds,0.0,0.0
467,Yakeshi,CN,2021-06-30 19:39:38,49.2833,120.7333,57.88,88,100,12.84,overcast clouds,0.0,0.0
468,Codrington,AU,2021-06-30 19:39:39,-38.2667,141.9667,48.42,83,100,7.09,overcast clouds,0.0,0.0
469,Benjamin Constant,BR,2021-06-30 19:39:39,-4.3831,-70.0311,71.65,64,20,5.75,few clouds,0.0,0.0
470,Hualmay,PE,2021-06-30 19:39:39,-11.0964,-77.6139,68.18,69,11,10.71,few clouds,0.0,0.0
471,Reserva,BR,2021-06-30 19:39:40,-24.6503,-50.8506,49.35,64,0,2.73,clear sky,0.0,0.0
472,Petropavlovsk-Kamchatskiy,RU,2021-06-30 19:39:40,53.0452,158.6483,50.59,93,0,4.47,clear sky,0.0,0.0
473,Kirovskiy,RU,2021-06-30 19:39:40,45.0917,133.5136,58.19,94,100,2.93,overcast clouds,0.0,0.0
474,Ust-Omchug,RU,2021-06-30 19:39:41,61.15,149.6333,70.38,60,77,4.03,broken clouds,0.0,0.0
475,Iqaluit,CA,2021-06-30 19:38:33,63.7506,-68.5145,53.33,66,75,18.01,broken clouds,0.0,0.0
476,Camana,PE,2021-06-30 19:39:41,-16.6228,-72.7111,64.47,74,6,7.25,clear sky,0.0,0.0
477,Te Anau,NZ,2021-06-30 19:39:42,-45.4167,167.7167,34.7,90,81,0.78,broken clouds,0.0,0.0
478,Tiznit,MA,2021-06-30 19:39:42,29.5833,-9.5,68.58,69,0,4.45,clear sky,0.0,0.0
479,Along,IN,2021-06-30 19:39:42,28.1667,94.7667,75.13,100,100,0.47,moderate rain,0.0,0.0
480,Belmonte,BR,2021-06-30 19:39:43,-15.8631,-38.8828,77.5,75,0,7.72,clear sky,0.0,0.0
481,Bindura,ZW,2021-06-30 19:39:43,-17.3019,31.3306,55.53,35,16,0.85,few clouds,0.0,0.0
482,Tafresh,IR,2021-06-30 19:39:43,34.692,50.013,72.41,28,50,6.31,scattered clouds,0.0,0.0
483,Bubaque,GW,2021-06-30 19:39:44,11.2833,-15.8333,80.8,80,100,9.53,overcast clouds,0.0,0.0
484,The Valley,AI,2021-06-30 19:39:44,18.217,-63.0578,84.34,79,20,20.71,few clouds,0.0,0.0
485,Conceicao Da Barra,BR,2021-06-30 19:39:44,-18.5933,-39.7322,71.87,77,82,13.49,broken clouds,0.0,0.0
486,Okhotsk,RU,2021-06-30 19:39:44,59.3833,143.3,60.49,66,49,1.41,scattered clouds,0.0,0.0
487,San Andres,CO,2021-06-30 19:39:46,12.5847,-81.7006,87.82,74,40,14.97,scattered clouds,0.0,0.0
488,Baishishan,CN,2021-06-30 19:39:46,43.5833,127.5667,62.71,98,100,2.3,overcast clouds,0.0,0.0
489,Lixourion,GR,2021-06-30 19:39:47,38.2019,20.4314,82.26,89,40,4.61,scattered clouds,0.0,0.0
490,Kieta,PG,2021-06-30 19:39:47,-6.2167,155.6333,77.76,85,45,6.62,scattered clouds,0.0,0.0
491,Bandarbeyla,SO,2021-06-30 19:39:47,9.4942,50.8122,78.78,78,5,31.74,clear sky,0.0,0.0
492,Chimbote,PE,2021-06-30 19:39:48,-9.0853,-78.5783,68.31,73,25,10.85,scattered clouds,0.0,0.0
493,Ludvika,SE,2021-06-30 19:39:48,60.1496,15.1878,61.03,68,21,7.56,few clouds,0.0,0.0
494,Llano De Piedra,PA,2021-06-30 19:39:49,7.6667,-80.5667,80.44,78,100,1.3,overcast clouds,0.0,0.0
495,Pak Phanang,TH,2021-06-30 19:39:49,8.3511,100.202,78.89,83,29,5.35,scattered clouds,0.0,0.0
496,La Ronge,CA,2021-06-30 19:39:49,55.1001,-105.2842,91.62,33,1,9.22,clear sky,0.0,0.0
497,Hazorasp,UZ,2021-06-30 19:39:50,41.3194,61.0742,85.84,22,36,8.9,scattered clouds,0.0,0.0
498,Eenhana,NA,2021-06-30 19:39:50,-17.4667,16.3333,62.35,25,100,3.02,overcast clouds,0.0,0.0
499,Evansville,US,2021-06-30 19:37:37,37.9748,-87.5558,89.22,62,75,5.01,broken clouds,0.0,0.0
500,Sokoni,TZ,2021-06-30 19:39:50,-6.4333,39.55,75.06,77,9,13.42,clear sky,0.0,0.0
501,Shimoda,JP,2021-06-30 19:39:51,34.6667,138.95,69.91,96,100,18.43,moderate rain,0.0,0.0
502,Benguela,AO,2021-06-30 19:39:51,-12.5763,13.4055,70.81,86,100,2.68,overcast clouds,0.0,0.0
503,Portland,US,2021-06-30 19:39:43,45.5234,-122.6762,76.95,60,75,4.61,haze,0.0,0.0
504,Tavda,RU,2021-06-30 19:39:51,58.0425,65.2726,68.68,97,95,4.74,overcast clouds,0.0,0.0
505,Taunggyi,MM,2021-06-30 19:39:52,20.7833,97.0333,63.61,97,100,5.35,overcast clouds,0.0,0.0
506,Auki,SB,2021-06-30 19:39:52,-8.7676,160.7034,76.51,88,23,4.54,few clouds,0.0,0.0
507,Kalmunai,LK,2021-06-30 19:39:52,7.4167,81.8167,80.89,75,98,11.81,overcast clouds,0.0,0.0
508,Cerro Largo,BR,2021-06-30 19:39:53,-28.1486,-54.7381,51.35,72,0,3.94,clear sky,0.0,0.0
509,Deputatskiy,RU,2021-06-30 19:39:53,69.3,139.9,49.35,78,12,3.96,few clouds,0.0,0.0
510,Sens,FR,2021-06-30 19:39:53,48.1667,3.3333,65.37,87,100,3.94,overcast clouds,0.0,0.0
511,Jardim,BR,2021-06-30 19:39:54,-21.4803,-56.1381,66.79,21,0,3.2,clear sky,0.0,0.0
512,Caconda,AO,2021-06-30 19:39:54,-13.7333,15.0667,58.21,25,100,2.86,overcast clouds,0.0,0.0
513,Uniao,BR,2021-06-30 19:39:54,-4.5858,-42.8642,89.62,47,27,2.28,scattered clouds,0.0,0.0
514,Tondon,GN,2021-06-30 19:39:55,10.3667,-13.35,76.1,95,31,2.24,light rain,0.0,0.0
515,Makakilo City,US,2021-06-30 19:39:55,21.3469,-158.0858,82.72,61,1,5.75,clear sky,0.0,0.0
516,La Palma,US,2021-06-30 19:39:55,33.8464,-118.0467,97.11,66,40,4.0,scattered clouds,0.0,0.0
517,Ucluelet,CA,2021-06-30 19:39:56,48.9329,-125.5528,79.95,87,100,4.27,overcast clouds,0.0,0.0
518,Beyneu,KZ,2021-06-30 19:39:56,45.3167,55.2,88.75,37,34,13.44,scattered clouds,0.0,0.0
519,Torrijos,ES,2021-06-30 19:39:56,39.9819,-4.2835,89.65,17,0,8.08,clear sky,0.0,0.0
520,San Anselmo,US,2021-06-30 19:39:57,37.9747,-122.5616,84.16,73,1,1.01,clear sky,0.0,0.0
521,Pangai,TO,2021-06-30 19:39:57,-19.8,-174.35,75.31,88,40,0.0,scattered clouds,0.0,0.0
522,Byron Bay,AU,2021-06-30 19:36:00,-28.65,153.6167,59.18,88,84,6.38,light rain,0.0,0.0
523,Burhanpur,IN,2021-06-30 19:39:57,21.3,76.2333,83.97,69,100,9.8,overcast clouds,0.0,0.0
524,Oktyabrskiy,RU,2021-06-30 19:39:58,54.4815,53.471,65.53,93,99,6.55,overcast clouds,0.0,0.0
525,Ilulissat,GL,2021-06-30 19:39:58,69.2167,-51.1,39.22,87,75,8.05,light rain,0.0,0.0
526,Atherton,GB,2021-06-30 19:39:58,53.5237,-2.4935,67.89,75,93,1.99,overcast clouds,0.0,0.0
527,Lata,PT,2021-06-30 19:39:59,40.1629,-8.3327,71.04,79,97,3.98,overcast clouds,0.0,0.0
528,Dongning,CN,2021-06-30 19:39:59,44.0622,131.1207,61.2,92,100,5.01,overcast clouds,0.0,0.0
529,Ewa Beach,US,2021-06-30 19:39:59,21.3156,-158.0072,84.15,61,1,5.99,clear sky,0.0,0.0
530,Naantali,FI,2021-06-30 19:40:00,60.4674,22.0243,69.12,63,0,4.61,clear sky,0.0,0.0
531,Kargat,RU,2021-06-30 19:40:00,55.1956,80.2811,60.21,97,93,8.03,overcast clouds,0.0,0.0
532,Popondetta,PG,2021-06-30 19:40:00,-8.7537,148.2534,71.15,92,96,2.91,overcast clouds,0.0,0.0
533,Sault Sainte Marie,CA,2021-06-30 19:39:06,46.5168,-84.3333,73.96,77,90,9.22,overcast clouds,0.0,0.0
534,Vagur,FO,2021-06-30 19:40:01,61.4732,-6.8119,50.09,90,94,5.61,overcast clouds,0.0,0.0
535,Nouadhibou,MR,2021-06-30 19:40:01,20.931,-17.0347,69.78,78,0,20.71,sand,0.0,0.0
536,Vyartsilya,RU,2021-06-30 19:40:01,62.1764,30.693,59.59,94,43,5.88,scattered clouds,0.0,0.0
537,Humaita,BR,2021-06-30 19:40:03,-7.5061,-63.0208,81.43,38,2,4.36,clear sky,0.0,0.0
538,Jiuquan,CN,2021-06-30 19:40:04,39.7432,98.5174,70.92,17,99,9.26,overcast clouds,0.0,0.0
539,Katsuura,JP,2021-06-30 19:40:05,35.1333,140.3,71.19,94,100,9.78,heavy intensity rain,0.0,0.0
540,Kanina,CD,2021-06-30 19:40:05,-10.7341,25.4699,59.83,38,28,4.7,scattered clouds,0.0,0.0
541,Komsomolskiy,UZ,2021-06-30 19:40:05,40.4272,71.7189,81.32,28,77,4.61,broken clouds,0.0,0.0
542,Griffith,US,2021-06-30 19:40:06,41.5284,-87.4237,83.14,79,75,4.0,broken clouds,0.0,0.0
543,Kununurra,AU,2021-06-30 19:40:06,-15.7667,128.7333,60.78,67,52,1.14,broken clouds,0.0,0.0
544,Vondrozo,MG,2021-06-30 19:40:06,-22.8167,47.2833,57.58,98,18,1.97,few clouds,0.0,0.0
545,Jaunjelgava,LV,2021-06-30 19:40:07,56.6167,25.0833,65.5,80,91,2.46,overcast clouds,0.0,0.0
546,Kutum,SD,2021-06-30 19:40:07,14.2,24.6667,84.65,25,83,11.63,broken clouds,0.0,0.0
547,Djambala,CG,2021-06-30 19:40:07,-2.5447,14.7533,75.6,49,100,3.4,overcast clouds,0.0,0.0
548,Portmore,JM,2021-06-30 19:40:08,17.9702,-76.8672,91.96,59,20,23.02,few clouds,0.0,0.0
549,Princeton,US,2021-06-30 19:36:12,25.5384,-80.4089,83.01,80,75,8.05,light rain,0.0,0.0
550,Livingstone,ZM,2021-06-30 19:40:08,-17.8419,25.8543,61.56,36,14,2.68,few clouds,0.0,0.0
551,Bonavista,CA,2021-06-30 19:40:09,48.6499,-53.1147,66.2,84,100,5.46,overcast clouds,0.0,0.0
552,Miraflores,MX,2021-06-30 19:40:09,19.2167,-98.8083,67.03,75,100,0.63,overcast clouds,0.0,0.0
553,Tiarei,PF,2021-06-30 19:40:09,-17.5333,-149.3333,82.42,77,100,24.65,overcast clouds,0.0,0.0
554,Sao Felix Do Xingu,BR,2021-06-30 19:40:10,-6.6447,-51.995,87.98,33,0,3.4,clear sky,0.0,0.0
555,Bulawayo,ZW,2021-06-30 19:40:10,-20.15,28.5833,59.34,23,9,3.38,clear sky,0.0,0.0
556,Gat,IL,2021-06-30 19:40:10,31.61,34.7642,85.41,100,0,2.64,clear sky,0.0,0.0
557,Yangambi,CD,2021-06-30 19:40:11,0.8102,24.4336,70.27,95,91,3.91,light rain,0.0,0.0
558,Maldonado,UY,2021-06-30 19:40:11,-34.6667,-54.9167,52.23,81,45,3.31,scattered clouds,0.0,0.0
559,Anupgarh,IN,2021-06-30 19:40:11,29.1911,73.2086,101.77,17,5,15.3,clear sky,0.0,0.0
560,Suntar,RU,2021-06-30 19:40:12,62.1444,117.6319,63.25,95,88,4.65,overcast clouds,0.0,0.0
561,Santa Isabel,BR,2021-06-30 19:40:12,-23.3156,-46.2214,58.71,60,48,8.81,scattered clouds,0.0,0.0
562,Urumqi,CN,2021-06-30 19:40:12,43.801,87.6005,74.35,31,0,4.47,clear sky,0.0,0.0
563,Vangaindrano,MG,2021-06-30 19:40:13,-23.35,47.6,63.97,94,6,4.97,clear sky,0.0,0.0
564,Antalaha,MG,2021-06-30 19:40:13,-14.9003,50.2788,69.44,86,100,7.4,overcast clouds,0.0,0.0
565,Bonga,ET,2021-06-30 19:40:13,7.2833,36.2333,57.99,98,100,1.54,overcast clouds,0.0,0.0
566,Milkovo,RU,2021-06-30 19:40:14,54.7167,158.6167,55.99,77,25,4.12,scattered clouds,0.0,0.0
567,Staraya Toropa,RU,2021-06-30 19:40:14,56.2801,31.6702,60.82,77,9,5.59,clear sky,0.0,0.0
568,San Ramon,US,2021-06-30 19:36:28,37.7799,-121.978,83.59,65,1,8.01,clear sky,0.0,0.0
569,Monte Gordo,PT,2021-06-30 19:40:14,37.1819,-7.4523,76.14,48,0,8.03,clear sky,0.0,0.0
570,Burnie,AU,2021-06-30 19:40:15,-41.0667,145.9167,49.96,89,49,4.34,scattered clouds,0.0,0.0
571,San-Pedro,CI,2021-06-30 19:40:15,4.7485,-6.6363,76.32,88,98,7.34,overcast clouds,0.0,0.0
572,Oytal,KZ,2021-06-30 19:40:15,42.9057,73.2697,74.8,24,56,3.83,broken clouds,0.0,0.0
573,Samagaltay,RU,2021-06-30 19:40:16,50.6022,95.0047,49.95,73,5,5.86,clear sky,0.0,0.0
574,Roztoky,CZ,2021-06-30 19:40:16,50.1584,14.3976,68.92,67,75,18.41,broken clouds,0.0,0.0
575,Roald,NO,2021-06-30 19:40:16,62.5833,6.1333,68.05,82,0,16.11,clear sky,0.0,0.0
576,Alta Floresta,BR,2021-06-30 19:40:17,-9.8756,-56.0861,82.22,34,0,4.61,clear sky,0.0,0.0
577,Riyadh,SA,2021-06-30 19:37:54,24.6877,46.7219,96.94,12,0,3.09,clear sky,0.0,0.0
578,Barcelos,PT,2021-06-30 19:39:44,41.5388,-8.6151,71.92,85,4,5.64,clear sky,0.0,0.0
579,Meulaboh,ID,2021-06-30 19:40:17,4.1363,96.1285,76.8,87,87,4.03,overcast clouds,0.0,0.0
580,Xining,CN,2021-06-30 19:40:18,36.6167,101.7667,49.21,85,53,3.27,broken clouds,0.0,0.0
581,Tattayyangarpettai,IN,2021-06-30 19:40:18,11.1333,78.45,83.55,66,100,5.84,overcast clouds,0.0,0.0
582,Jiayuguan,CN,2021-06-30 19:40:18,39.8167,98.3,70.86,18,87,9.1,overcast clouds,0.0,0.0
583,Westport,US,2021-06-30 19:38:41,41.1415,-73.3579,100.18,47,1,1.01,clear sky,0.0,0.0
584,Myanaung,MM,2021-06-30 19:40:19,18.2833,95.3167,78.58,81,100,3.38,overcast clouds,0.0,0.0
585,Batagay,RU,2021-06-30 19:40:19,67.6333,134.6333,62.04,74,100,3.0,overcast clouds,0.0,0.0
586,Tacuarembo,UY,2021-06-30 19:40:19,-31.7333,-55.9833,53.17,71,3,5.03,clear sky,0.0,0.0
587,Udachnyy,RU,2021-06-30 19:40:20,66.4167,112.4,61.88,53,100,4.41,overcast clouds,0.0,0.0
588,Tenenkou,ML,2021-06-30 19:40:20,14.4572,-4.9169,98.01,26,89,3.53,overcast clouds,0.0,0.0
589,Bac Lieu,VN,2021-06-30 19:40:20,9.285,105.7244,81.1,81,48,7.78,scattered clouds,0.0,0.0
590,Hamilton,US,2021-06-30 19:35:45,39.1834,-84.5333,87.89,71,40,1.01,scattered clouds,0.0,0.0
591,Aljezur,PT,2021-06-30 19:40:21,37.3191,-8.8033,61.79,82,0,11.12,clear sky,0.0,0.0
592,Saint-Pierre,RE,2021-06-30 19:40:21,-21.3393,55.4781,71.28,79,20,11.5,few clouds,0.0,0.0
593,Bambanglipuro,ID,2021-06-30 19:40:22,-7.95,110.2833,58.6,88,99,4.76,overcast clouds,0.0,0.0
594,Dok Kham Tai,TH,2021-06-30 19:40:22,19.1624,99.9934,73.83,95,100,3.2,light rain,0.0,0.0
595,Sept-Iles,CA,2021-06-30 19:40:22,50.2001,-66.3821,61.32,81,90,4.0,overcast clouds,0.0,0.0
596,Sao Bento,BR,2021-06-30 19:40:23,-6.2833,-37.75,84.61,40,69,2.86,broken clouds,0.0,0.0
597,Gravdal,NO,2021-06-30 19:40:23,68.1214,13.5031,49.89,87,75,13.8,broken clouds,0.0,0.0
598,Castelbuono,IT,2021-06-30 19:40:23,37.932,14.0886,80.67,87,72,0.13,broken clouds,0.0,0.0
599,Valdivia,CL,2021-06-30 19:40:24,-39.8142,-73.2459,50.09,98,100,1.16,overcast clouds,0.0,0.0
600,Ashland,US,2021-06-30 19:40:04,40.8167,-82.2665,82.36,81,100,4.81,overcast clouds,0.0,0.0
601,Laguna,US,2021-06-30 19:40:24,38.421,-121.4238,101.43,45,1,4.0,clear sky,0.0,0.0
602,Kysyl-Syr,RU,2021-06-30 19:40:24,63.8986,122.7617,65.17,60,100,2.86,overcast clouds,0.0,0.0
603,Mitsamiouli,KM,2021-06-30 19:40:25,-11.3847,43.2844,77.43,70,7,9.35,clear sky,0.0,0.0
604,Novita,CO,2021-06-30 19:40:25,4.9551,-76.6053,80.26,89,100,4.03,overcast clouds,0.0,0.0
605,Thinadhoo,MV,2021-06-30 19:40:25,0.5333,72.9333,82.69,75,96,10.98,light rain,0.0,0.0
606,Manicore,BR,2021-06-30 19:40:26,-5.8092,-61.3003,78.75,61,20,5.75,few clouds,0.0,0.0
607,Itarema,BR,2021-06-30 19:40:26,-2.9248,-39.9167,81.01,71,100,12.3,overcast clouds,0.0,0.0
608,Pringsewu,ID,2021-06-30 19:40:26,-5.3582,104.9744,74.03,88,100,2.64,overcast clouds,0.0,0.0
609,Garwa,IN,2021-06-30 19:40:27,24.1833,83.8167,87.66,60,100,11.81,overcast clouds,0.0,0.0
610,Walvis Bay,NA,2021-06-30 19:40:27,-22.9575,14.5053,58.08,88,1,3.44,clear sky,0.0,0.0
611,Suez,EG,2021-06-30 19:40:27,29.9737,32.5263,81.57,51,0,12.24,clear sky,0.0,0.0
612,Onda,ES,2021-06-30 19:40:28,39.9667,-0.25,75.85,75,46,3.62,scattered clouds,0.0,0.0
613,Palatka,US,2021-06-30 19:40:28,29.6486,-81.6376,87.03,54,100,6.53,overcast clouds,0.0,0.0
614,Gornopravdinsk,RU,2021-06-30 19:40:28,60.05,69.9,61.92,96,15,5.35,few clouds,0.0,0.0
615,Timaru,NZ,2021-06-30 19:39:36,-44.4,171.25,36.07,88,15,4.47,few clouds,0.0,0.0
616,San Jeronimo,PE,2021-06-30 19:40:29,-11.9472,-75.2829,59.99,43,68,6.04,broken clouds,0.0,0.0
617,Osoyoos,CA,2021-06-30 19:40:29,49.0331,-119.4524,111.33,28,0,4.61,clear sky,0.0,0.0
618,Cartagena,CO,2021-06-30 19:38:39,10.3997,-75.5144,89.22,66,40,8.05,scattered clouds,0.0,0.0
619,Hegang,CN,2021-06-30 19:40:30,47.4,130.3667,54.37,91,100,10.29,overcast clouds,0.0,0.0
620,Teknaf,BD,2021-06-30 19:40:30,20.8624,92.3058,79.18,91,100,5.55,overcast clouds,0.0,0.0
621,Sal Rei,CV,2021-06-30 19:40:30,16.1833,-22.9167,75.76,69,40,13.8,scattered clouds,0.0,0.0
622,Severo-Yeniseyskiy,RU,2021-06-30 19:40:30,60.3725,93.0408,40.06,94,5,1.95,clear sky,0.0,0.0
623,Luanda,AO,2021-06-30 19:36:45,-8.8368,13.2343,75.2,83,0,12.66,clear sky,0.0,0.0
624,Soe,ID,2021-06-30 19:40:31,-9.8607,124.284,60.57,94,65,4.52,broken clouds,0.0,0.0
625,Verkhnevilyuysk,RU,2021-06-30 19:40:31,63.4453,120.3167,60.57,89,100,7.18,light rain,0.0,0.0
626,Mosjoen,NO,2021-06-30 19:40:32,65.836,13.1908,57.72,58,0,9.22,clear sky,0.0,0.0
627,Mujiayingzi,CN,2021-06-30 19:40:32,42.1167,118.7833,64.92,53,3,6.08,clear sky,0.0,0.0
628,The Pas,CA,2021-06-30 19:40:32,53.8251,-101.2541,84.22,45,1,14.97,clear sky,0.0,0.0
629,Eureka,US,2021-06-30 19:40:33,40.8021,-124.1637,79.66,80,69,8.01,broken clouds,0.0,0.0
630,Mahanje,TZ,2021-06-30 19:40:33,-9.9333,35.3333,60.76,72,44,2.42,scattered clouds,0.0,0.0
631,Beneditinos,BR,2021-06-30 19:40:33,-5.45,-42.3667,88.93,29,58,2.51,broken clouds,0.0,0.0
632,Ghanzi,BW,2021-06-30 19:40:34,-21.5667,21.7833,61.57,22,89,7.14,overcast clouds,0.0,0.0
633,Simga,IN,2021-06-30 19:40:34,21.6333,81.7,86.52,61,100,10.0,overcast clouds,0.0,0.0
634,Fujin,CN,2021-06-30 19:40:34,47.26,132.0322,56.07,94,100,11.34,moderate rain,0.0,0.0
635,Yulara,AU,2021-06-30 19:40:34,-25.2406,130.9889,46.24,76,0,8.05,clear sky,0.0,0.0
636,Norton Shores,US,2021-06-30 19:40:35,43.1689,-86.2639,84.11,76,40,4.0,scattered clouds,0.0,0.0
637,Batticaloa,LK,2021-06-30 19:40:35,7.7102,81.6924,82.65,73,100,2.95,light rain,0.0,0.0
638,Wanning,CN,2021-06-30 19:40:35,18.8003,110.3967,81.21,89,100,9.24,overcast clouds,0.0,0.0
639,Kaeo,NZ,2021-06-30 19:40:36,-35.1,173.7833,43.32,95,0,6.02,clear sky,0.0,0.0
640,Port-Gentil,GA,2021-06-30 19:40:36,-0.7193,8.7815,76.96,88,20,6.91,few clouds,0.0,0.0
641,Watsa,CD,2021-06-30 19:40:36,3.0372,29.5355,61.61,97,88,2.3,light rain,0.0,0.0
642,Pacific Grove,US,2021-06-30 19:36:59,36.6177,-121.9166,82.29,84,90,5.01,overcast clouds,0.0,0.0
643,Rafai,CF,2021-06-30 19:40:37,4.95,23.9167,69.04,86,68,1.74,broken clouds,0.0,0.0
644,Tual,ID,2021-06-30 19:40:37,-5.6667,132.75,80.42,82,24,18.54,few clouds,0.0,0.0
645,Hambantota,LK,2021-06-30 19:40:38,6.1241,81.1185,80.29,82,100,14.16,overcast clouds,0.0,0.0
646,Khani,GE,2021-06-30 19:40:38,41.9563,42.9566,67.57,94,99,1.14,overcast clouds,0.0,0.0
647,Kabo,CF,2021-06-30 19:40:38,7.6994,18.629,72.34,81,10,4.34,light rain,0.0,0.0
648,Vilaka,LV,2021-06-30 19:40:39,57.1846,27.6722,63.12,74,9,2.73,clear sky,0.0,0.0
649,Oktyabrskoye,RU,2021-06-30 19:40:39,43.0645,44.7417,66.34,88,95,4.47,overcast clouds,0.0,0.0
650,Clinton,US,2021-06-30 19:37:00,42.587,-82.9199,84.27,70,75,1.99,broken clouds,0.0,0.0
651,Kabanjahe,ID,2021-06-30 19:40:40,3.1001,98.4908,63.36,95,65,1.97,broken clouds,0.0,0.0
652,Maroantsetra,MG,2021-06-30 19:40:40,-15.4333,49.7333,70.16,86,100,4.5,light rain,0.0,0.0
653,Mana,GF,2021-06-30 19:40:40,5.6592,-53.7767,81.84,77,17,4.52,few clouds,0.0,0.0
654,Carmen,MX,2021-06-30 19:40:40,18.6333,-91.8333,86.79,63,90,7.61,overcast clouds,0.0,0.0
655,Tessalit,ML,2021-06-30 19:40:41,20.1986,1.0114,94.59,25,74,10.04,broken clouds,0.0,0.0
656,Harrison,US,2021-06-30 19:40:41,30.4091,-89.0436,89.35,70,40,11.5,scattered clouds,0.0,0.0
657,Techiman,GH,2021-06-30 19:40:41,7.5862,-1.9414,71.17,94,100,5.28,light rain,0.0,0.0
658,Mussomeli,IT,2021-06-30 19:40:42,37.5778,13.7513,76.46,65,54,2.66,broken clouds,0.0,0.0
659,Ostersund,SE,2021-06-30 19:40:42,63.1792,14.6357,61.25,44,89,3.44,overcast clouds,0.0,0.0
660,Sohagpur,IN,2021-06-30 19:40:42,22.7,78.2,82.65,78,100,7.67,light rain,0.0,0.0
661,Kaoma,ZM,2021-06-30 19:40:43,-14.7833,24.8,58.44,33,27,5.68,scattered clouds,0.0,0.0
662,Kupang,ID,2021-06-30 19:40:43,-10.1667,123.5833,73.02,84,91,8.61,overcast clouds,0.0,0.0
663,Ilo,PE,2021-06-30 19:40:43,-17.6394,-71.3375,61.66,77,90,8.05,overcast clouds,0.0,0.0
664,Talpa,MX,2021-06-30 19:40:44,28.8257,-111.6257,94.5,51,27,8.01,scattered clouds,0.0,0.0
665,Kaka,TM,2021-06-30 19:40:44,37.3482,59.6143,91.58,13,7,6.98,clear sky,0.0,0.0
666,Maravilha,BR,2021-06-30 19:40:44,-26.7608,-53.1725,51.8,65,0,3.4,clear sky,0.0,0.0
667,Saint-Francois,FR,2021-06-30 19:40:45,46.4154,3.9054,62.19,85,75,4.61,broken clouds,0.0,0.0
668,Antofagasta,CL,2021-06-30 19:37:19,-23.65,-70.4,60.08,66,1,4.88,clear sky,0.0,0.0
669,Constantine,DZ,2021-06-30 19:40:45,36.365,6.6147,78.21,44,75,10.36,broken clouds,0.0,0.0
670,Koumac,NC,2021-06-30 19:40:45,-20.5667,164.2833,67.69,74,73,9.31,broken clouds,0.0,0.0
671,Broken Hill,AU,2021-06-30 19:40:46,-31.95,141.4333,51.51,93,75,5.75,broken clouds,0.0,0.0
672,Mwene-Ditu,CD,2021-06-30 19:40:46,-7.0,23.45,72.14,34,31,2.89,scattered clouds,0.0,0.0
673,Makokou,GA,2021-06-30 19:40:31,0.5738,12.8642,71.96,90,100,1.95,overcast clouds,0.0,0.0
674,Nizwa,OM,2021-06-30 19:40:47,22.9333,57.5333,90.68,33,3,1.95,clear sky,0.0,0.0
675,Svetlogorsk,BY,2021-06-30 19:40:47,52.6333,29.7333,65.64,78,4,5.75,clear sky,0.0,0.0
676,Saryozek,KZ,2021-06-30 19:40:47,44.3583,77.9753,63.3,38,11,3.98,few clouds,0.0,0.0
677,Beberibe,BR,2021-06-30 19:40:47,-4.1797,-38.1306,84.24,74,100,9.78,overcast clouds,0.0,0.0
678,Port Macquarie,AU,2021-06-30 19:40:48,-31.4333,152.9167,52.9,100,90,0.0,overcast clouds,0.0,0.0
679,Fonte Boa,BR,2021-06-30 19:40:48,-2.4959,-66.2662,80.91,50,8,3.78,clear sky,0.0,0.0
